# Time (s),Altitude (m),Total velocity (m/s),Total acceleration (m/s²),Position East of launch (m),Position North of launch (m),Angle of attack (°),Roll rate (rad/s),Pitch rate (rad/s),Yaw rate (rad/s),Mass (kg),Longitudinal moment of inertia (kg·m²),Rotational moment of inertia (kg·m²),CP location (cm),CG location (cm),Thrust (N),Vertical orientation (zenith) (°),Lateral orientation (azimuth) (°),Wind velocity (m/s)
# Event LAUNCH occurred at t=0 seconds
# Event IGNITION occurred at t=0 seconds
0,0,0,7.584,0,0,0,0,0,0,32.746,29.617,0.15684,NaN,193.32,71.089,85,0,NaN
0.01,0,0,3.2422,0,0,0,0,0,0,32.746,29.617,0.15684,NaN,193.32,213.27,85,0,NaN
0.02,0,0,1.1013,0,0,0,0,0,0,32.741,29.612,0.15684,NaN,193.31,355.44,85,0,NaN
0.03,5.4913e-5,0.011027,5.4462,4.8043e-6,0,0,0,0,0,32.736,29.608,0.15683,NaN,193.3,497.62,85,0,NaN
0.04,4.3612e-4,0.06551,9.7925,3.8156e-5,0,0,0,0,0,32.731,29.603,0.15682,NaN,193.28,639.8,85,0,NaN
0.05,0.0015766,0.16346,14.14,1.3793e-4,0,0,0,0,0,32.726,29.598,0.15682,NaN,193.27,781.98,85,0,NaN
0.06,0.0039094,0.30489,18.489,3.4203e-4,0,0,0,0,0,32.72,29.593,0.15681,NaN,193.25,924.16,85,0,NaN
0.07,0.0078678,0.48982,22.84,6.8835e-4,0,0,0,0,0,32.715,29.589,0.15681,NaN,193.24,1066.3,85,0,NaN
0.08,0.013885,0.71826,27.191,0.0012148,0,0,0,0,0,32.71,29.584,0.1568,NaN,193.22,1208.5,85,0,NaN
# Event LIFTOFF occurred at t=0.09 seconds
0.09,0.022395,0.99022,31.544,0.0019593,0,0,0,0,0,32.705,29.579,0.15679,NaN,193.21,1350.7,85,0,NaN
0.1,0.033831,1.3057,35.899,0.0029598,0,0,0,0,0,32.7,29.575,0.15679,NaN,193.19,1492.9,85,0,NaN
0.11,0.048627,1.6648,40.255,0.0042543,0,0,0,0,0,32.694,29.57,0.15678,NaN,193.18,1635,85,0,NaN
0.12,0.067217,2.0674,44.612,0.0058807,0,0,0,0,0,32.689,29.565,0.15677,NaN,193.16,1777.2,85,0,NaN
0.13,0.090034,2.5136,48.21,0.007877,0,0,0,0,0,32.684,29.56,0.15677,NaN,193.15,1894.6,85,0,NaN
0.14,0.11748,2.9958,48.69,0.010278,0,0,0,0,0,32.677,29.554,0.15676,NaN,193.13,1909.9,85,0,NaN
0.15,0.14975,3.4828,48.837,0.013101,0,0,0,0,0,32.668,29.546,0.15675,NaN,193.1,1914.1,85,0,NaN
0.16,0.18687,3.9713,48.987,0.016349,0,0,0,0,0,32.657,29.536,0.15674,NaN,193.07,1918.4,85,0,NaN
0.17,0.22888,4.4614,49.136,0.020024,0,0,0,0,0,32.646,29.526,0.15672,NaN,193.04,1922.7,85,0,NaN
0.18,0.27577,4.9529,49.285,0.024127,0,0,0,0,0,32.635,29.516,0.15671,NaN,193.01,1926.9,85,0,NaN
0.19,0.32756,5.4459,49.434,0.028658,0,0,0,0,0,32.625,29.507,0.1567,NaN,192.98,1931.2,85,0,NaN
0.2,0.38428,5.9404,49.584,0.03362,0,0,0,0,0,32.614,29.497,0.15668,NaN,192.95,1935.5,85,0,NaN
0.21,0.44593,6.4364,49.733,0.039014,0,0,0,0,0,32.603,29.487,0.15667,NaN,192.92,1939.7,85,0,NaN
0.22,0.51252,6.9339,49.882,0.04484,0,0,0,0,0,32.593,29.477,0.15666,NaN,192.89,1944,85,0,NaN
0.23,0.58408,7.4329,50.032,0.051101,0,0,0,0,0,32.582,29.468,0.15665,NaN,192.86,1948.2,85,0,NaN
0.24,0.66062,7.9333,50.181,0.057797,0,0,0,0,0,32.571,29.458,0.15663,NaN,192.83,1952.5,85,0,NaN
0.25,0.74215,8.4353,50.331,0.06493,0,0,0,0,0,32.56,29.448,0.15662,NaN,192.8,1956.8,85,0,NaN
0.26,0.82869,8.9388,50.48,0.072501,0,0,0,0,0,32.55,29.438,0.15661,NaN,192.77,1961,85,0,NaN
0.27,0.92026,9.4437,50.63,0.080512,0,0,0,0,0,32.539,29.428,0.15659,NaN,192.73,1965.3,85,0,NaN
0.28,1.0169,9.9502,50.779,0.088964,0,0,0,0,0,32.528,29.419,0.15658,NaN,192.7,1969.6,85,0,NaN
0.29,1.1185,10.458,50.929,0.097857,0,0,0,0,0,32.518,29.409,0.15657,NaN,192.67,1973.8,85,0,NaN
0.3,1.2252,10.968,51.079,0.10719,0,0,0,0,0,32.507,29.399,0.15656,NaN,192.64,1978.1,85,0,NaN
0.31,1.337,11.479,51.228,0.11698,0,0,0,0,0,32.496,29.389,0.15654,NaN,192.61,1982.4,85,0,NaN
0.32,1.4539,11.991,51.378,0.1272,0,0,0,0,0,32.485,29.379,0.15653,NaN,192.58,1986.6,85,0,NaN
0.33,1.5759,12.505,51.528,0.13788,0,0,0,0,0,32.475,29.37,0.15652,NaN,192.55,1990.9,85,0,NaN
0.34,1.7031,13.02,51.677,0.149,0,0,0,0,0,32.464,29.36,0.1565,NaN,192.52,1995.1,85,0,NaN
0.35,1.8354,13.537,51.827,0.16057,0,0,0,0,0,32.453,29.35,0.15649,NaN,192.49,1999.4,85,0,NaN
0.36,1.9728,14.056,51.976,0.1726,0,0,0,0,0,32.443,29.34,0.15648,NaN,192.46,2003.7,85,0,NaN
0.37,2.1154,14.576,52.126,0.18508,0,0,0,0,0,32.432,29.33,0.15647,NaN,192.43,2007.9,85,0,NaN
0.38,2.2632,15.097,52.276,0.19801,0,0,0,0,0,32.421,29.32,0.15645,NaN,192.4,2012.2,85,0,NaN
0.39,2.4162,15.62,52.425,0.21139,0,0,0,0,0,32.41,29.31,0.15644,NaN,192.36,2016.5,85,0,NaN
0.4,2.5744,16.144,52.571,0.22523,0,0,0,0,0,32.4,29.301,0.15643,NaN,192.33,2020.6,85,0,NaN
0.41,2.7379,16.67,52.683,0.23953,0,0,0,0,0,32.389,29.291,0.15641,NaN,192.3,2023.6,85,0,NaN
0.42,2.9066,17.197,52.786,0.25429,0,0,0,0,0,32.378,29.28,0.1564,NaN,192.27,2026.4,85,0,NaN
# Event LAUNCHROD occurred at t=0.43 seconds
0.43,3.0805,17.725,52.896,0.26951,0,0,0,0,0,32.367,29.27,0.15639,227.22,192.24,2029.8,85,0,NaN
0.445,3.3513,18.519,53.067,0.2933,0,0.039589,0,2.1995e-6,2.5526e-8,32.353,29.257,0.15637,227.1,192.2,2034.9,85,0,NaN
0.4675,3.7798,19.714,53.324,0.33129,0,0.092906,0,1.4238e-5,9.8022e-8,32.332,29.238,0.15634,226.94,192.14,2042.6,85,0,NaN
0.50125,4.4727,21.517,53.708,0.39349,0,0.16148,0,5.4851e-5,2.1265e-7,32.3,29.208,0.15631,226.74,192.04,2054.1,85,-3.7898e-6,NaN
0.55125,5.6111,24.208,54.276,0.49719,0,0.2435,0,1.7314e-4,5.0017e-7,32.253,29.165,0.15625,226.5,191.91,2067.8,85,-1.5602e-5,NaN
0.60125,6.884,26.926,54.792,0.61479,-5.6475e-9,0.3079,0,3.7406e-4,6.7851e-7,32.197,29.112,0.15618,226.32,191.74,2081.5,84.999,-3.1429e-5,NaN
0.65125,8.2928,29.67,55.3,0.74638,-1.8135e-8,0.35895,0,6.723e-4,6.8094e-7,32.141,29.06,0.15612,226.18,191.58,2094.9,84.997,-5.3463e-5,NaN
0.70125,9.8386,32.439,55.755,0.89207,-4.3902e-8,0.39946,0,0.0010824,1.0634e-6,32.084,29.007,0.15605,226.07,191.41,2106.7,84.995,-8.2755e-5,NaN
0.75125,11.523,35.231,56.2,1.052,-9.1742e-8,0.43135,0,0.0016178,2.849e-7,32.027,28.953,0.15598,225.98,191.24,2118.1,84.991,-1.0868e-4,NaN
0.80125,13.346,38.045,56.645,1.2261,-1.6797e-7,0.45585,0,0.0022917,1.2159e-6,31.969,28.898,0.15591,225.93,191.07,2129.4,84.986,-1.3954e-4,NaN
0.85125,15.31,40.881,57.089,1.4147,-2.8074e-7,0.47381,0,0.0031149,-5.6575e-7,31.911,28.843,0.15584,225.89,190.9,2140.8,84.978,-1.5193e-4,NaN
0.90125,17.416,43.74,57.532,1.6177,-4.3456e-7,0.48576,0,0.0040973,-1.2603e-6,31.853,28.788,0.15577,225.87,190.73,2152.2,84.968,-1.2955e-4,NaN
0.95125,19.665,46.62,57.912,1.8353,-6.2173e-7,0.49203,0,0.0052482,-2.6361e-6,31.795,28.732,0.1557,225.86,190.55,2161.7,84.954,-6.55e-5,NaN
1.0013,22.057,49.52,58.226,2.0677,-8.2707e-7,0.49282,0,0.0065683,-2.033e-6,31.736,28.676,0.15563,225.88,190.37,2169,84.937,1.4541e-5,NaN
1.0513,24.594,52.435,58.541,2.3148,-1.0252e-6,0.48824,0,0.0080582,-2.1183e-6,31.676,28.619,0.15556,225.91,190.2,2176.3,84.916,7.1204e-5,NaN
1.1013,27.276,55.367,58.854,2.5768,-1.1974e-6,0.47832,0,0.0097141,-2.3817e-6,31.617,28.562,0.15549,225.96,190.02,2183.7,84.891,1.4967e-4,NaN
1.1513,30.104,58.313,59.166,2.8539,-1.3249e-6,0.46304,0,0.011517,-3.1661e-6,31.558,28.504,0.15542,226.02,189.83,2191,84.861,2.4399e-4,NaN
1.2013,33.08,61.276,59.46,3.1462,-1.3765e-6,0.44241,0,0.013452,-3.2003e-6,31.498,28.447,0.15534,226.1,189.65,2197.9,84.825,3.294e-4,NaN
1.2513,36.203,64.253,59.673,3.4538,-1.3218e-6,0.41645,0,0.015494,-3.2435e-6,31.439,28.388,0.15527,226.2,189.47,2202.2,84.783,3.8722e-4,NaN
1.3013,39.474,67.24,59.872,3.7769,-1.1346e-6,0.38529,0,0.0176,-4.6996e-6,31.379,28.33,0.1552,226.31,189.29,2206.2,84.736,4.6137e-4,NaN
1.3513,42.895,70.238,60.069,4.1158,-7.9669e-7,0.34911,0,0.019727,-6.9315e-6,31.318,28.27,0.15513,226.44,189.1,2210.1,84.683,5.5337e-4,NaN
1.4013,46.464,73.245,60.264,4.4705,-2.7195e-7,0.30821,0,0.021812,-5.9331e-6,31.258,28.211,0.15506,226.59,188.91,2214,84.623,6.4711e-4,NaN
1.4513,50.183,76.262,60.457,4.8415,4.829e-7,0.26304,0,0.023793,-6.6415e-6,31.198,28.151,0.15498,226.75,188.73,2218,84.558,7.0524e-4,NaN
1.5013,54.053,79.289,60.606,5.2288,1.4928e-6,0.2142,0,0.0256,-3.7617e-6,31.138,28.092,0.15491,226.93,188.54,2220.6,84.487,7.0002e-4,NaN
1.5513,58.073,82.323,60.722,5.6328,2.754e-6,0.16248,0,0.027148,-5.6217e-6,31.077,28.031,0.15484,227.11,188.35,2222.3,84.411,6.2484e-4,NaN
1.6013,62.244,85.363,60.835,6.0539,4.2528e-6,0.10883,0,0.028362,-7.1008e-6,31.016,27.971,0.15477,227.3,188.16,2223.9,84.332,5.9453e-4,NaN
1.6513,66.566,88.408,60.946,6.4922,5.9533e-6,0.054408,0,0.02914,-4.6375e-6,30.956,27.91,0.15469,227.5,187.97,2225.6,84.249,4.2197e-4,NaN
1.7013,71.039,91.459,61.055,6.9482,7.8165e-6,5.399e-4,0,0,0,30.895,27.849,0.15462,227.7,187.77,2227.2,84.165,2.5008e-4,NaN
1.7513,75.664,94.514,61.151,7.4222,9.7681e-6,0.051289,0,-0.029099,-6.2228e-8,30.834,27.787,0.15455,227.58,187.58,2228.6,84.081,3.1998e-5,NaN
1.8013,80.441,97.575,61.212,7.9145,1.1702e-5,0.099468,0,-0.028153,7.0598e-6,30.774,27.726,0.15447,227.46,187.39,2228.9,83.999,-1.4121e-4,NaN
1.8513,85.37,100.64,61.266,8.4256,1.3532e-5,0.14236,0,-0.026538,-7.4062e-8,30.713,27.664,0.1544,227.37,187.19,2229.1,83.921,-3.6054e-4,NaN
1.9013,90.451,103.7,61.317,8.9556,1.5155e-5,0.17835,0,-0.02426,3.2377e-6,30.652,27.601,0.15433,227.3,186.99,2229.4,83.848,-6.1821e-4,NaN
1.9513,95.684,106.77,61.365,9.505,1.6431e-5,0.20595,0,-0.021343,-6.5155e-6,30.591,27.539,0.15426,227.26,186.8,2229.6,83.782,-9.6266e-4,NaN
2.0013,101.07,109.84,61.41,10.074,1.7186e-5,0.2239,0,-0.017877,1.0916e-5,30.531,27.476,0.15418,227.24,186.6,2229.8,83.726,-0.0012162,NaN
2.0513,106.61,112.92,61.429,10.663,1.7295e-5,0.23124,0,-0.013972,6.8231e-6,30.47,27.413,0.15411,227.26,186.4,2229.3,83.68,-0.001274,NaN
2.1013,112.3,115.99,61.434,11.272,1.6707e-5,0.22747,0,-0.0097832,6.4532e-6,30.409,27.35,0.15404,227.32,186.2,2228.6,83.646,-0.0013367,NaN
2.1513,118.14,119.06,61.436,11.901,1.537e-5,0.21256,0,-0.0054912,-1.6318e-6,30.348,27.287,0.15396,227.41,186,2227.8,83.624,-0.001363,NaN
2.2013,124.14,122.14,61.434,12.55,1.3257e-5,0.18708,0,-0.0013501,9.4706e-6,30.287,27.223,0.15389,227.53,185.8,2227,83.614,-0.0013129,NaN
2.2513,130.28,125.21,61.428,13.22,1.0414e-5,0.15235,0,0.0023615,1.1698e-5,30.227,27.159,0.15382,227.68,185.6,2226.2,83.616,-0.0010817,NaN
2.3013,136.58,128.29,61.403,13.909,6.971e-6,0.11033,0,0.0053966,7.784e-6,30.166,27.095,0.15375,227.85,185.4,2225,83.627,-7.3361e-4,NaN
2.3513,143.03,131.36,61.333,14.619,3.125e-6,0.063587,0,0.0075148,5.8517e-7,30.105,27.031,0.15367,228.04,185.2,2222.5,83.646,-4.8856e-4,NaN
2.4012,149.64,134.43,61.257,15.348,-9.2104e-7,0.015186,0,0.0085253,-1.9776e-5,30.045,26.967,0.1536,228.24,184.99,2219.9,83.669,-4.7022e-4,NaN
2.4512,156.4,137.49,61.178,16.097,-5.2308e-6,0.03154,0,-0.008304,-8.6879e-6,29.984,26.902,0.15353,228.24,184.79,2217.4,83.694,-7.7706e-4,NaN
2.5012,163.3,140.55,61.095,16.866,-9.9565e-6,0.073086,0,-0.0067612,-1.066e-7,29.924,26.837,0.15345,228.17,184.58,2214.8,83.716,-0.0010078,NaN
2.5512,170.36,143.61,61.001,17.654,-1.5236e-5,0.10613,0,-0.0039972,-7.1681e-7,29.863,26.772,0.15338,228.12,184.38,2212,83.731,-0.0010647,NaN
2.6012,177.58,146.66,60.761,18.46,-2.1066e-5,0.12794,0,-2.0573e-4,-1.8967e-5,29.803,26.707,0.15331,228.11,184.17,2205,83.738,-7.2039e-4,NaN
2.6512,184.94,149.7,60.464,19.286,-2.7254e-5,0.13662,0,0.0042752,-3.9741e-6,29.743,26.642,0.15324,228.14,183.97,2196.4,83.732,-3.8872e-4,NaN
2.7012,192.45,152.73,60.164,20.13,-3.3571e-5,0.13149,0,0.0090408,1.0788e-6,29.683,26.577,0.15317,228.22,183.76,2187.7,83.713,-2.4799e-4,NaN
2.7512,200.12,155.74,59.861,20.993,-3.9986e-5,0.11309,0,0.013608,1.6249e-5,29.623,26.512,0.15309,228.33,183.56,2179.1,83.68,-4.6698e-4,NaN
2.8012,207.93,158.73,59.555,21.875,-4.6641e-5,0.083418,0,0.017443,5.5272e-5,29.564,26.447,0.15302,228.48,183.35,2170.5,83.635,-0.0012803,NaN
2.8512,215.89,161.71,59.097,22.776,-5.4083e-5,0.045762,0,0.020079,1.1589e-4,29.504,26.381,0.15295,228.65,183.14,2157.5,83.581,-0.0022529,NaN
2.9012,224,164.67,58.349,23.696,-6.2971e-5,0.004419,0,0.021127,0.0011374,29.445,26.316,0.15288,228.84,182.94,2136.2,83.522,-0.0027013,NaN
2.9512,232.25,167.58,57.589,24.635,-7.3735e-5,0.035694,0,-0.020424,1.342e-4,29.388,26.252,0.15281,228.81,182.74,2114.6,83.462,-0.002524,NaN
3.0012,240.64,170.47,56.824,25.594,-8.6159e-5,0.069524,0,-0.017935,6.1818e-5,29.33,26.188,0.15274,228.76,182.53,2093,83.407,-0.0020973,NaN
3.0512,249.18,173.31,56.055,26.572,-9.9975e-5,0.092777,0,-0.013939,3.6138e-5,29.273,26.124,0.15267,228.76,182.33,2071.5,83.361,-0.0012855,NaN
3.1012,257.86,176.11,55.276,27.57,-1.1454e-4,0.10244,0,-0.0089704,5.3232e-5,29.215,26.059,0.1526,228.79,182.13,2049.8,83.328,-8.74e-5,NaN
3.1512,266.68,178.87,54.429,28.587,-1.2871e-4,0.097289,0,-0.0036529,4.7805e-5,29.159,25.995,0.15254,228.88,181.92,2026.2,83.31,0.0013715,NaN
3.2012,275.63,181.6,53.556,29.623,-1.4113e-4,0.078225,0,0.0011765,2.1218e-5,29.103,25.933,0.15247,229.01,181.73,2002.2,83.306,0.0022985,NaN
3.2512,284.72,184.27,52.677,30.679,-1.5105e-4,0.048392,0,0.0047712,6.1711e-5,29.049,25.872,0.1524,229.17,181.53,1978.1,83.315,0.0029846,NaN
3.3012,293.93,186.91,51.795,31.753,-1.5793e-4,0.01261,0,0.006575,1.7687e-4,28.995,25.81,0.15234,229.35,181.34,1954.1,83.332,0.0030256,NaN
3.3512,303.28,189.5,50.909,32.845,-1.6175e-4,0.023233,0,-0.0062004,1.1004e-4,28.941,25.749,0.15227,229.39,181.14,1930.1,83.351,0.0023596,NaN
3.4012,312.75,192.04,50.076,33.954,-1.6327e-4,0.053033,0,-0.0037092,6.1034e-5,28.887,25.687,0.15221,229.38,180.95,1907.6,83.365,0.0012314,NaN
3.4512,322.35,194.55,49.311,35.081,-1.6338e-4,0.071687,0,4.5058e-4,2.8946e-5,28.835,25.626,0.15215,229.4,180.76,1887.3,83.37,2.9761e-4,NaN
3.5012,332.07,197.01,48.542,36.224,-1.6308e-4,0.076131,0,0.0055447,4.2434e-5,28.784,25.567,0.15209,229.46,180.57,1866.9,83.362,-4.8516e-4,NaN
3.5512,341.92,199.44,47.772,37.384,-1.633e-4,0.06573,0,0.010592,3.7687e-5,28.733,25.509,0.15202,229.57,180.38,1846.6,83.339,-0.0013333,NaN
3.6012,351.88,201.83,47,38.561,-1.6477e-4,0.04281,0,0.014605,5.8518e-5,28.682,25.45,0.15196,229.72,180.2,1826.3,83.302,-0.0015328,NaN
3.6512,361.96,204.18,46.2,39.753,-1.6768e-4,0.012263,0,0.016673,1.9888e-4,28.632,25.391,0.1519,229.89,180.01,1805.2,83.257,-0.0014272,NaN
3.7012,372.15,206.48,45.223,40.962,-1.7198e-4,0.019352,0,-0.016362,1.0378e-4,28.582,25.332,0.15184,229.95,179.82,1779.1,83.209,-0.0013948,NaN
3.7512,382.46,208.74,44.21,42.188,-1.7767e-4,0.04533,0,-0.01375,3.7369e-5,28.533,25.276,0.15179,229.95,179.64,1752.2,83.165,-0.0015763,NaN
3.8012,392.88,210.95,43.193,43.43,-1.8488e-4,0.06012,0,-0.0093545,2.7497e-5,28.486,25.22,0.15173,229.99,179.47,1725.2,83.132,-0.0015702,NaN
3.8512,403.41,213.11,42.173,44.689,-1.9337e-4,0.060658,0,-0.0041979,4.6619e-5,28.439,25.164,0.15167,230.07,179.29,1698.2,83.112,-7.7334e-4,NaN
3.9012,414.04,215.22,41.15,45.963,-2.0235e-4,0.047215,0,5.3341e-4,7.1674e-5,28.392,25.108,0.15162,230.19,179.11,1671.3,83.107,4.6334e-4,NaN
3.9512,424.77,217.28,40.079,47.254,-2.1019e-4,0.023307,0,0.0037033,1.0047e-4,28.345,25.052,0.15156,230.34,178.94,1643,83.114,0.0020589,NaN
4.0012,435.61,219.28,38.961,48.559,-2.1529e-4,0.0050324,0,-0.0045576,3.1498e-4,28.299,24.998,0.1515,230.47,178.77,1613.6,83.126,0.0028335,NaN
4.0512,446.54,221.22,37.839,49.88,-2.1699e-4,0.030524,0,-0.0028557,6.3353e-5,28.256,24.947,0.15145,230.47,178.6,1584.1,83.138,0.0027465,NaN
4.1012,457.57,223.11,36.718,51.214,-2.1556e-4,0.046742,0,9.2779e-4,1.5572e-5,28.213,24.895,0.1514,230.5,178.44,1554.7,83.141,0.0021963,NaN
4.1512,468.69,224.95,35.599,52.562,-2.1166e-4,0.049758,0,0.00574,2.1235e-5,28.17,24.843,0.15135,230.57,178.27,1525.2,83.131,0.0013581,NaN
4.2012,479.9,226.73,34.483,53.924,-2.0627e-4,0.039218,0,0.010249,6.3858e-5,28.127,24.791,0.1513,230.67,178.11,1495.9,83.108,1.8286e-5,NaN
4.2512,491.2,228.45,33.381,55.298,-2.0123e-4,0.018412,0,0.013252,8.8103e-5,28.086,24.741,0.15125,230.81,177.95,1466.8,83.074,-9.1225e-4,NaN
4.3012,502.58,230.12,32.277,56.686,-1.9733e-4,0.0065429,0,-0.013886,1.8182e-4,28.046,24.693,0.1512,230.92,177.8,1437.9,83.035,-4.6848e-4,NaN
4.3512,514.04,231.73,31.173,58.086,-1.9413e-4,0.028415,0,-0.01195,5.8364e-6,28.007,24.645,0.15115,230.92,177.65,1408.9,82.997,-5.4066e-5,NaN
4.4012,525.58,233.29,30.069,59.499,-1.9113e-4,0.040928,0,-0.0080925,5.1649e-6,27.968,24.598,0.15111,230.95,177.5,1379.9,82.968,-1.4802e-4,NaN
4.4512,537.19,234.79,28.964,60.925,-1.8831e-4,0.040728,0,-0.0035173,3.414e-5,27.93,24.551,0.15106,231.01,177.35,1350.9,82.951,3.1474e-4,NaN
4.5012,548.88,236.23,27.982,62.364,-1.8517e-4,0.028482,0,3.9115e-4,6.541e-5,27.891,24.504,0.15101,231.12,177.2,1325.4,82.947,0.0014179,NaN
4.5512,560.64,237.63,27.081,63.814,-1.8021e-4,0.0083007,0,0.0025323,1.8722e-4,27.855,24.459,0.15097,231.24,177.05,1302.3,82.952,0.0032193,NaN
4.6012,572.46,238.98,26.178,65.276,-1.7132e-4,0.013304,0,-0.0021648,3.396e-5,27.82,24.416,0.15093,231.29,176.92,1279.2,82.959,0.0046627,NaN
4.6512,584.35,240.29,25.278,66.749,-1.5652e-4,0.029462,0,4.2365e-4,-1.2361e-5,27.785,24.373,0.15089,231.3,176.78,1256,82.962,0.0054288,NaN
4.7012,596.31,241.55,24.38,68.232,-1.3531e-4,0.035321,5.9277e-9,0.0043887,-4.9301e-5,27.75,24.33,0.15085,231.34,176.64,1232.9,82.955,0.0052107,NaN
4.7512,608.32,242.77,23.507,69.726,-1.0827e-4,0.029364,5.1068e-9,0.0084064,3.5297e-5,27.716,24.286,0.1508,231.41,176.51,1210.3,82.937,0.0036872,NaN
4.8012,620.4,243.94,22.71,71.229,-7.7809e-5,0.014018,0,0.011147,2.2457e-4,27.682,24.244,0.15076,231.52,176.37,1189.7,82.909,3.1985e-4,NaN
4.8512,632.53,245.07,21.919,72.743,-4.8065e-5,0.0052912,0,-0.011672,7.2389e-4,27.65,24.204,0.15072,231.6,176.25,1169.3,82.875,-0.0017265,NaN
4.9012,644.71,246.17,21.13,74.267,-2.1938e-5,0.021863,0,-0.0099681,1.9636e-4,27.618,24.165,0.15069,231.6,176.12,1148.9,82.844,-0.0019834,NaN
4.9512,656.95,247.22,20.341,75.8,5.0727e-7,0.030168,0,-0.006527,8.6315e-5,27.586,24.125,0.15065,231.63,175.99,1128.5,82.82,-7.4342e-4,NaN
5.0012,669.24,248.24,19.546,77.344,2.0553e-5,0.027527,0,-0.0026325,4.6956e-5,27.555,24.085,0.15061,231.68,175.87,1108.1,82.807,2.1281e-4,NaN
5.0512,681.58,249.21,18.642,78.897,3.9876e-5,0.015286,0,2.6651e-4,5.3982e-5,27.524,24.046,0.15057,231.77,175.74,1084.6,82.804,0.0013345,NaN
5.1012,693.97,250.14,17.684,80.459,5.9937e-5,0.0017213,0,-0.0011593,1.0168e-4,27.494,24.009,0.15054,231.86,175.62,1059.6,82.806,0.0024279,NaN
5.1512,706.4,251.02,16.727,82.029,8.2156e-5,0.017247,0,1.1002e-4,3.616e-5,27.466,23.973,0.1505,231.85,175.51,1034.7,82.808,0.0021568,NaN
5.2012,718.87,251.85,15.775,83.608,1.0633e-4,0.025798,0,0.0030894,6.5481e-5,27.438,23.937,0.15047,231.87,175.4,1009.8,82.804,9.4124e-4,NaN
5.2512,731.38,252.64,14.83,85.195,1.3023e-4,0.024438,0,0.0066489,1.6769e-4,27.409,23.902,0.15044,231.91,175.28,984.83,82.79,-0.0010158,NaN
5.3012,743.93,253.38,13.576,86.79,1.5167e-4,0.013991,0,0.0094136,4.8305e-4,27.381,23.866,0.1504,231.98,175.17,951.26,82.767,-0.0036899,NaN
5.3512,756.52,254.05,11.599,88.392,1.6685e-4,0.0014171,0,-0.008788,0.0054202,27.355,23.833,0.15037,232.06,175.07,897.62,82.738,-0.0055002,NaN
5.4012,769.13,254.63,9.603,90,1.7396e-4,0.015094,0,-0.0090825,4.2399e-4,27.332,23.803,0.15034,232.04,174.97,843.16,82.71,-0.0048631,NaN
5.4512,781.77,255.11,7.6203,91.616,1.739e-4,0.022351,0,-0.0062966,1.9646e-4,27.31,23.775,0.15032,232.05,174.88,788.7,82.688,-0.0031155,NaN
5.5012,794.43,255.48,5.656,93.237,1.6952e-4,0.020682,0,-0.0031462,1.2177e-4,27.288,23.746,0.15029,232.07,174.79,734.24,82.674,-8.3117e-4,NaN
5.5512,807.11,255.76,3.7535,94.864,1.6445e-4,0.011265,0,-8.5859e-4,6.577e-5,27.265,23.718,0.15026,232.12,174.7,680.47,82.669,0.0013561,NaN
5.6012,819.8,255.93,2.2679,96.496,1.6168e-4,0.0019767,0,1.3361e-4,-8.0515e-5,27.244,23.69,0.15024,232.16,174.61,636.06,82.668,0.0028288,NaN
5.6512,832.49,256.03,1.2508,98.131,1.6321e-4,0.013934,0,0.0012718,-6.6167e-5,27.227,23.668,0.15022,232.13,174.54,594.62,82.666,0.003785,NaN
5.7012,845.19,256.05,1.6129,99.77,1.6972e-4,0.020005,0,0.0037923,-8.4711e-5,27.211,23.648,0.1502,232.11,174.48,553.18,82.659,0.0038798,NaN
5.7512,857.88,255.99,2.8672,101.41,1.8158e-4,0.018035,0,0.0066675,-2.1455e-5,27.196,23.629,0.15018,232.11,174.42,511.73,82.644,0.0028063,NaN
5.8012,870.57,255.86,4.2847,103.06,1.9649e-4,0.0090196,0,0.0087374,2.2589e-4,27.181,23.609,0.15016,232.14,174.35,470.29,82.622,-6.6354e-5,NaN
5.8512,883.26,255.66,5.8913,104.7,2.1082e-4,0.0031004,0,-0.0090799,0.0012045,27.166,23.589,0.15014,232.15,174.29,424.58,82.596,-0.0030951,NaN
5.9012,895.93,255.37,7.7623,106.35,2.2016e-4,0.013366,0,-0.0079385,3.7426e-4,27.154,23.574,0.15013,232.1,174.24,371.82,82.571,-0.0065203,NaN
5.9512,908.58,254.99,9.6364,108,2.204e-4,0.01806,0,-0.0056716,3.2889e-4,27.145,23.562,0.15012,232.07,174.21,318.96,82.551,-0.0075338,NaN
6.0012,921.21,254.52,11.505,109.65,2.1049e-4,0.015688,0,-0.0032302,2.7619e-4,27.137,23.552,0.15011,232.06,174.17,266.1,82.538,-0.0055187,NaN
6.0512,933.81,253.95,13.368,111.29,1.9384e-4,0.0075029,0,-0.0016284,2.4791e-4,27.129,23.541,0.1501,232.06,174.14,213.24,82.532,-0.0013239,NaN
6.1012,946.39,253.28,15.129,112.94,1.7647e-4,0.0031521,0,0.0012587,-4.5887e-4,27.12,23.531,0.15009,232.04,174.1,163,82.528,0.003952,NaN
6.1512,958.92,252.53,16.014,114.59,1.6487e-4,0.01214,0,0.0023814,-3.3807e-4,27.113,23.522,0.15008,231.98,174.08,136.46,82.523,0.0079324,NaN
6.2012,971.42,251.74,16.689,116.23,1.6356e-4,0.016268,0,0.0044338,-2.6384e-4,27.109,23.516,0.15008,231.93,174.06,115.58,82.513,0.0088228,NaN
6.2512,983.88,250.91,17.363,117.88,1.7343e-4,0.014293,0,0.006564,-1.0415e-4,27.106,23.512,0.15007,231.9,174.05,94.703,82.497,0.005793,NaN
6.3012,996.3,250.04,18.036,119.52,1.8995e-4,0.0072285,0,0.0080701,1.2553e-4,27.104,23.509,0.15007,231.88,174.04,73.824,82.476,0.0010723,NaN
6.3512,1008.7,249.14,18.707,121.15,2.0722e-4,0.0021307,0,-0.0083184,0.0014379,27.101,23.505,0.15007,231.85,174.02,52.946,82.452,-0.0024878,NaN
6.4012,1021,248.21,19.14,122.79,2.2086e-4,0.010185,0,-0.0075749,4.4193e-4,27.098,23.502,0.15006,231.78,174.01,38.48,82.429,-0.0049934,NaN
6.4512,1033.3,247.26,19.279,124.42,2.2801e-4,0.014238,0,-0.0059333,3.315e-4,27.097,23.5,0.15006,231.73,174.01,31.941,82.409,-0.0063491,NaN
6.5012,1045.5,246.3,19.415,126.05,2.2715e-4,0.012958,0,-0.0040953,2.9316e-4,27.096,23.499,0.15006,231.69,174,25.424,82.395,-0.0058821,NaN
6.5512,1057.7,245.34,19.55,127.67,2.1954e-4,0.007116,0,-0.0027909,3.282e-4,27.095,23.498,0.15006,231.66,174,18.907,82.385,-0.0033233,NaN
6.6012,1069.8,244.36,19.684,129.3,2.0843e-4,9.6211e-4,0,0.0023446,-6.5172e-4,27.095,23.497,0.15006,231.64,174,12.39,82.378,9.2421e-4,NaN
6.6512,1081.9,243.38,19.796,130.92,1.9885e-4,0.0084639,0,0.0030086,-3.8182e-4,27.094,23.496,0.15006,231.57,174,6.5148,82.37,0.0048831,NaN
6.7012,1093.9,242.4,19.757,132.53,1.953e-4,0.012735,0,0.0044534,-2.8273e-4,27.094,23.496,0.15006,231.51,173.99,4.7332,82.36,0.0063311,NaN
6.7512,1105.9,241.42,19.694,134.14,1.9912e-4,0.012521,0,0.0060901,-2.6783e-4,27.093,23.495,0.15006,231.47,173.99,3.6755,82.345,0.005482,NaN
6.8012,1117.9,240.44,19.633,135.75,2.0898e-4,0.008209,0,0.0073644,-2.0709e-4,27.093,23.495,0.15006,231.44,173.99,2.6178,82.325,0.0033962,NaN
6.8512,1129.8,239.46,19.573,137.36,2.2219e-4,0.0014189,0,0.0079449,0.0010597,27.093,23.495,0.15006,231.42,173.99,1.5601,82.303,-6.3326e-4,NaN
6.9012,1141.6,238.49,19.515,138.96,2.3395e-4,0.0055608,0,-0.0076732,8.723e-4,27.093,23.495,0.15006,231.36,173.99,0.50273,82.28,-0.0056209,NaN
# Event BURNOUT occurred at t=6.9512 seconds
# Event EJECTION_CHARGE occurred at t=6.9512 seconds
6.9512,1153.4,237.51,19.437,140.56,2.3896e-4,0.010211,0,-0.0066999,7.2349e-4,27.093,23.495,0.15006,231.3,173.99,0,82.259,-0.0092619,NaN
7.0012,1165.1,236.55,19.34,142.16,2.3353e-4,0.011356,0,-0.0054351,6.5303e-4,27.093,23.495,0.15006,231.26,173.99,0,82.242,-0.0098207,NaN
7.0512,1176.8,235.59,19.243,143.75,2.1772e-4,0.0087304,0,-0.004202,6.2434e-4,27.093,23.495,0.15006,231.23,173.99,0,82.228,-0.0069847,NaN
7.1012,1188.5,234.63,19.147,145.34,1.9504e-4,0.0033441,0,-0.0035368,4.0413e-4,27.093,23.495,0.15006,231.2,173.99,0,82.217,-0.0019075,NaN
7.1512,1200.1,233.68,19.052,146.92,1.7126e-4,0.0028868,0,0.0034817,-8.3148e-4,27.093,23.495,0.15006,231.16,173.99,0,82.207,0.0029312,NaN
7.2012,1211.6,232.73,18.959,148.51,1.5158e-4,0.0080149,0,0.0041505,-6.1036e-4,27.093,23.495,0.15006,231.11,173.99,0,82.196,0.0063742,NaN
7.2512,1223.1,231.78,18.867,150.09,1.3939e-4,0.010584,0,0.0052348,-5.6989e-4,27.093,23.495,0.15006,231.06,173.99,0,82.183,0.0079459,NaN
7.3012,1234.6,230.84,18.777,151.66,1.3625e-4,0.0099909,0,0.0063471,-6.1267e-4,27.093,23.495,0.15006,231.02,173.99,0,82.166,0.0076348,NaN
7.3512,1246,229.91,18.688,153.24,1.4128e-4,0.0065919,0,0.0072751,-6.7808e-4,27.093,23.495,0.15006,230.99,173.99,0,82.146,0.0056334,NaN
7.4012,1257.4,228.98,18.601,154.81,1.5199e-4,0.0014426,0,0.0076771,-0.0012003,27.093,23.495,0.15006,230.97,173.99,0,82.124,0.0023067,NaN
7.4512,1268.7,228.06,18.515,156.38,1.6466e-4,0.0039457,0,-0.007658,3.1685e-4,27.093,23.495,0.15006,230.92,173.99,0,82.102,-0.0013755,NaN
7.5012,1280,227.13,18.43,157.94,1.7546e-4,0.0077983,0,-0.006934,4.4417e-4,27.093,23.495,0.15006,230.87,173.99,0,82.081,-0.0042814,NaN
7.5512,1291.2,226.22,18.345,159.5,1.8137e-4,0.0090261,0,-0.0060044,5.1618e-4,27.093,23.495,0.15006,230.83,173.99,0,82.063,-0.0055071,NaN
7.6012,1302.4,225.3,18.26,161.06,1.8152e-4,0.0075488,0,-0.0051674,5.1497e-4,27.093,23.495,0.15006,230.8,173.99,0,82.047,-0.0043994,NaN
7.6512,1313.5,224.4,18.176,162.62,1.773e-4,0.0039468,0,-0.0045737,3.8557e-4,27.093,23.495,0.15006,230.78,173.99,0,82.033,-0.0017133,NaN
7.7012,1324.6,223.49,18.093,164.17,1.7148e-4,7.3582e-4,0,0.004333,-7.5308e-4,27.093,23.495,0.15006,230.75,173.99,0,82.02,5.9365e-4,NaN
7.7512,1335.6,222.59,18.01,165.72,1.6648e-4,0.0051584,0,0.0046952,-2.5899e-4,27.093,23.495,0.15006,230.7,173.99,0,82.007,0.0017965,NaN
7.8012,1346.6,221.7,17.929,167.27,1.6338e-4,0.008088,0,0.0053857,-1.5688e-4,27.093,23.495,0.15006,230.65,173.99,0,81.993,0.0018635,NaN
7.8512,1357.6,220.8,17.849,168.81,1.6206e-4,0.0087446,0,0.0062765,-7.0397e-5,27.093,23.495,0.15006,230.62,173.99,0,81.976,0.0011137,NaN
7.9012,1368.5,219.92,17.771,170.35,1.618e-4,0.0070269,0,0.0070915,-9.7897e-5,27.093,23.495,0.15006,230.59,173.99,0,81.957,6.8334e-4,NaN
7.9512,1379.4,219.03,17.694,171.89,1.6227e-4,0.0035588,0,0.0076227,-3.7459e-4,27.093,23.495,0.15006,230.56,173.99,0,81.936,0.0011208,NaN
8.0012,1390.2,218.15,17.617,173.43,1.6389e-4,6.8716e-4,0,-0.0073099,-0.0026332,27.093,23.495,0.15006,230.54,173.99,0,81.913,0.0017394,NaN
8.0512,1401,217.28,17.542,174.96,1.6706e-4,0.0044084,0,-0.0075213,-3.0119e-4,27.093,23.495,0.15006,230.49,173.99,0,81.891,0.0012309,NaN
8.1012,1411.7,216.4,17.467,176.49,1.7128e-4,0.0067884,0,-0.0070087,-6.9073e-5,27.093,23.495,0.15006,230.45,173.99,0,81.87,2.7545e-4,NaN
8.1512,1422.4,215.53,17.393,178.02,1.7562e-4,0.0072306,0,-0.0063162,3.4147e-5,27.093,23.495,0.15006,230.42,173.99,0,81.851,-1.6623e-4,NaN
8.2012,1433,214.67,17.318,179.54,1.7966e-4,0.0056184,0,-0.005667,5.9953e-5,27.093,23.495,0.15006,230.39,173.99,0,81.834,-2.36e-4,NaN
8.2512,1443.6,213.81,17.245,181.06,1.8329e-4,0.002444,0,-0.0052485,1.1164e-4,27.093,23.495,0.15006,230.37,173.99,0,81.819,-2.8984e-4,NaN
8.3012,1454.2,212.95,17.172,182.58,1.8649e-4,0.0013138,0,0.0052619,2.2717e-4,27.093,23.495,0.15006,230.34,173.99,0,81.804,-3.2741e-4,NaN
8.3512,1464.7,212.1,17.1,184.1,1.8937e-4,0.0046315,0,0.0055484,-2.6067e-5,27.093,23.495,0.15006,230.3,173.99,0,81.788,1.0631e-4,NaN
8.4012,1475.2,211.25,17.028,185.61,1.9228e-4,0.0067922,0,0.0060701,-8.3216e-5,27.093,23.495,0.15006,230.26,173.99,0,81.772,5.7944e-4,NaN
8.4512,1485.6,210.4,16.958,187.13,1.9551e-4,0.0073547,5.0443e-9,0.0066892,-8.929e-5,27.093,23.495,0.15006,230.23,173.99,0,81.754,8.1805e-4,NaN
8.5012,1496,209.56,16.889,188.63,1.993e-4,0.0062593,0,0.0073001,-1.4393e-4,27.093,23.495,0.15006,230.2,173.99,0,81.733,9.8551e-4,NaN
8.5512,1506.4,208.72,16.822,190.14,2.0394e-4,0.0038047,0,0.0077291,-2.3986e-4,27.093,23.495,0.15006,230.18,173.99,0,81.712,0.0010145,NaN
8.6012,1516.7,207.88,16.755,191.64,2.0944e-4,6.7907e-4,0,0.0078261,-0.0013453,27.093,23.495,0.15006,230.16,173.99,0,81.689,0.0010264,NaN
8.6512,1526.9,207.05,16.689,193.15,2.1555e-4,0.0024565,0,-0.0078721,-1.9407e-4,27.093,23.495,0.15006,230.12,173.99,0,81.667,6.2195e-4,NaN
8.7012,1537.1,206.22,16.624,194.64,2.2194e-4,0.004785,0,-0.0075498,6.5396e-5,27.093,23.495,0.15006,230.09,173.99,0,81.645,-2.6904e-4,NaN
8.7512,1547.3,205.39,16.559,196.14,2.2789e-4,0.0057778,0,-0.0070928,2.0729e-4,27.093,23.495,0.15006,230.06,173.99,0,81.624,-0.0011429,NaN
8.8012,1557.5,204.57,16.494,197.63,2.3255e-4,0.005281,0,-0.0066194,2.9435e-4,27.093,23.495,0.15006,230.03,173.99,0,81.604,-0.0012765,NaN
8.8512,1567.6,203.75,16.429,199.13,2.3606e-4,0.0034779,0,-0.006251,2.1083e-4,27.093,23.495,0.15006,230.01,173.99,0,81.586,-5.5169e-4,NaN
8.9012,1577.6,202.93,16.366,200.62,2.3896e-4,7.9829e-4,0,-0.0060629,-2.2576e-4,27.093,23.495,0.15006,229.99,173.99,0,81.568,3.462e-4,NaN
8.9512,1587.6,202.12,16.302,202.1,2.4198e-4,0.0020939,0,0.006114,-3.8793e-4,27.093,23.495,0.15006,229.96,173.99,0,81.551,9.8202e-4,NaN
9.0012,1597.6,201.31,16.24,203.59,2.457e-4,0.0045332,0,0.0064052,-1.5599e-4,27.093,23.495,0.15006,229.92,173.99,0,81.533,9.9727e-4,NaN
9.0512,1607.5,200.5,16.178,205.07,2.5006e-4,0.0060013,0,0.0068423,-3.4836e-5,27.093,23.495,0.15006,229.89,173.99,0,81.514,4.9609e-4,NaN
9.1012,1617.4,199.7,16.117,206.55,2.5475e-4,0.0062578,0,0.0073062,4.7262e-5,27.093,23.495,0.15006,229.86,173.99,0,81.493,7.6865e-5,NaN
9.1512,1627.3,198.89,16.057,208.02,2.5926e-4,0.0053501,0,0.0077203,9.2226e-5,27.093,23.495,0.15006,229.84,173.99,0,81.472,-2.7086e-4,NaN
9.2012,1637.1,198.1,15.998,209.5,2.6346e-4,0.0036065,0,0.0080233,3.347e-5,27.093,23.495,0.15006,229.82,173.99,0,81.449,-5.2592e-5,NaN
9.2512,1646.9,197.3,15.94,210.97,2.675e-4,0.0013278,0,0.008224,-3.0672e-4,27.093,23.495,0.15006,229.8,173.99,0,81.426,4.8162e-4,NaN
9.3012,1656.6,196.51,15.882,212.44,2.7176e-4,0.0010585,0,-0.0082311,-9.6142e-5,27.093,23.495,0.15006,229.77,173.99,0,81.402,2.2047e-4,NaN
9.3512,1666.3,195.72,15.824,213.91,2.7598e-4,0.0030248,0,-0.0080911,2.0785e-4,27.093,23.495,0.15006,229.74,173.99,0,81.379,-4.1586e-4,NaN
9.4013,1676,194.93,15.767,215.37,2.7972e-4,0.004213,0,-0.0078233,2.2729e-4,27.093,23.495,0.15006,229.71,173.99,0,81.356,-6.7081e-4,NaN
9.4513,1685.6,194.15,15.71,216.84,2.8288e-4,0.0043365,0,-0.0074938,2.1523e-4,27.093,23.495,0.15006,229.69,173.99,0,81.334,-7.991e-4,NaN
9.5013,1695.2,193.37,15.654,218.3,2.8527e-4,0.0034638,0,-0.0072102,3.6186e-4,27.093,23.495,0.15006,229.67,173.99,0,81.313,-0.001099,NaN
9.5513,1704.7,192.59,15.598,219.76,2.868e-4,0.0017876,0,-0.0070026,6.2204e-4,27.093,23.495,0.15006,229.65,173.99,0,81.293,-9.7547e-4,NaN
9.6013,1714.2,191.82,15.543,221.21,2.8751e-4,3.9234e-4,0,0.0068556,0.0010825,27.093,23.495,0.15006,229.63,173.99,0,81.273,-4.0202e-4,NaN
9.6513,1723.7,191.04,15.488,222.67,2.8787e-4,0.0025646,0,0.0070497,-2.4545e-4,27.093,23.495,0.15006,229.6,173.99,0,81.253,4.7875e-4,NaN
9.7013,1733.1,190.28,15.433,224.12,2.8863e-4,0.0042987,0,0.0073181,-3.7519e-4,27.093,23.495,0.15006,229.57,173.99,0,81.232,0.0013546,NaN
9.7513,1742.5,189.51,15.38,225.57,2.9036e-4,0.0052331,0,0.0076543,-4.5688e-4,27.093,23.495,0.15006,229.54,173.99,0,81.211,0.0020029,NaN
9.8013,1751.8,188.74,15.327,227.02,2.935e-4,0.0053149,0,0.0079826,-4.5325e-4,27.093,23.495,0.15006,229.52,173.99,0,81.188,0.002167,NaN
9.8513,1761.1,187.98,15.274,228.46,2.9813e-4,0.0045716,0,0.0083312,-5.1963e-4,27.093,23.495,0.15006,229.5,173.99,0,81.165,0.0020766,NaN
9.9013,1770.4,187.22,15.223,229.9,3.0419e-4,0.0031309,0,0.0085923,-5.9433e-4,27.093,23.495,0.15006,229.48,173.99,0,81.14,0.0017263,NaN
9.9513,1779.6,186.47,15.172,231.35,3.1133e-4,0.0012734,0,0.0087444,-7.2657e-4,27.093,23.495,0.15006,229.47,173.99,0,81.115,0.0010332,NaN
10.001,1788.8,185.71,15.121,232.78,3.1905e-4,6.2987e-4,0,-0.0087887,5.4436e-4,27.093,23.495,0.15006,229.45,173.99,0,81.09,2.5155e-5,NaN
10.051,1798,184.96,15.071,234.22,3.2653e-4,0.002266,0,-0.0086822,7.4544e-4,27.093,23.495,0.15006,229.42,173.99,0,81.065,-0.0010485,NaN
10.101,1807.1,184.22,15.021,235.66,3.3306e-4,0.0032939,0,-0.0085051,7.6125e-4,27.093,23.495,0.15006,229.4,173.99,0,81.04,-0.0016982,NaN
10.151,1816.2,183.47,14.972,237.09,3.3813e-4,0.0035929,0,-0.0083088,6.9806e-4,27.093,23.495,0.15006,229.38,173.99,0,81.016,-0.0016513,NaN
10.201,1825.2,182.73,14.922,238.52,3.4194e-4,0.0030605,0,-0.0080786,4.5005e-4,27.093,23.495,0.15006,229.36,173.99,0,80.993,-8.4715e-4,NaN
10.251,1834.2,181.99,14.874,239.95,3.4506e-4,0.0018661,0,-0.0079606,6.4743e-5,27.093,23.495,0.15006,229.34,173.99,0,80.97,1.0311e-4,NaN
10.301,1843.2,181.25,14.825,241.38,3.4814e-4,3.1712e-4,0,-0.007002,-0.0036523,27.093,23.495,0.15006,229.32,173.99,0,80.947,0.0010796,NaN
10.351,1852.1,180.51,14.777,242.8,3.5192e-4,0.0015264,0,0.0078003,-0.0013562,27.093,23.495,0.15006,229.3,173.99,0,80.924,0.0018069,NaN
10.401,1861,179.78,14.729,244.22,3.5681e-4,0.0032233,0,0.0079897,-8.2284e-4,27.093,23.495,0.15006,229.28,173.99,0,80.902,0.002235,NaN
10.451,1869.9,179.05,14.682,245.64,3.6311e-4,0.004545,0,0.0082301,-5.2628e-4,27.093,23.495,0.15006,229.25,173.99,0,80.878,0.0021843,NaN
10.501,1878.7,178.32,14.636,247.06,3.7074e-4,0.005239,0,0.0085576,-3.6649e-4,27.093,23.495,0.15006,229.23,173.99,0,80.854,0.0018196,NaN
10.551,1887.5,177.59,14.59,248.48,3.7945e-4,0.0051857,0,0.0088698,-1.9048e-4,27.093,23.495,0.15006,229.21,173.99,0,80.829,0.0012345,NaN
10.601,1896.2,176.87,14.545,249.9,3.8871e-4,0.00452,0,0.0091244,-1.9826e-5,27.093,23.495,0.15006,229.2,173.99,0,80.803,5.2048e-4,NaN
10.651,1904.9,176.14,14.5,251.31,3.9807e-4,0.0033364,0,0.0093727,1.3338e-4,27.093,23.495,0.15006,229.18,173.99,0,80.777,1.243e-4,NaN
10.701,1913.6,175.42,14.455,252.72,4.0725e-4,0.0018004,0,0.0095112,3.8571e-4,27.093,23.495,0.15006,229.17,173.99,0,80.75,-7.4296e-5,NaN
10.751,1922.2,174.71,14.411,254.13,4.1615e-4,1.8175e-4,0,0,0,27.093,23.495,0.15006,229.16,173.99,0,80.723,7.6938e-5,NaN
10.801,1930.8,173.99,14.368,255.54,4.2487e-4,0.0012189,0,-0.0095285,1.5362e-4,27.093,23.495,0.15006,229.14,173.99,0,80.695,2.3638e-4,NaN
10.851,1939.4,173.28,14.324,256.94,4.3353e-4,0.0021825,0,-0.0094117,-3.2418e-5,27.093,23.495,0.15006,229.12,173.99,0,80.668,4.1793e-4,NaN
10.901,1947.9,172.57,14.281,258.35,4.422e-4,0.0025477,0,-0.0092622,-2.3207e-4,27.093,23.495,0.15006,229.1,173.99,0,80.641,8.1848e-4,NaN
10.951,1956.4,171.86,14.238,259.75,4.512e-4,0.0023296,0,-0.009117,-6.3382e-4,27.093,23.495,0.15006,229.08,173.99,0,80.615,0.0014278,NaN
11.001,1964.9,171.15,14.196,261.15,4.6085e-4,0.0015764,0,-0.0088995,-0.0013555,27.093,23.495,0.15006,229.07,173.99,0,80.589,0.0018915,NaN
11.051,1973.3,170.45,14.154,262.55,4.7147e-4,4.9695e-4,0,-0.0066591,-0.0059898,27.093,23.495,0.15006,229.05,173.99,0,80.563,0.0024974,NaN
11.101,1981.7,169.75,14.112,263.94,4.8341e-4,0.0010479,0,0.0083476,-0.0033685,27.093,23.495,0.15006,229.04,173.99,0,80.538,0.0028992,NaN
11.151,1990.1,169.05,14.071,265.34,4.9684e-4,0.0022773,0,0.0089819,-0.001462,27.093,23.495,0.15006,229.02,173.99,0,80.512,0.0028276,NaN
11.201,1998.4,168.35,14.03,266.73,5.1164e-4,0.0033596,0,0.0092101,-7.5001e-4,27.093,23.495,0.15006,229,173.99,0,80.485,0.0023464,NaN
11.251,2006.7,167.65,13.989,268.12,5.2754e-4,0.0041255,0,0.0094328,-4.1863e-4,27.093,23.495,0.15006,228.98,173.99,0,80.459,0.0018526,NaN
11.301,2014.9,166.96,13.949,269.51,5.4414e-4,0.0044769,0,0.0096581,-1.1343e-4,27.093,23.495,0.15006,228.96,173.99,0,80.431,0.0011488,NaN
11.351,2023.1,166.27,13.91,270.9,5.6098e-4,0.0043965,0,0.0098789,1.9899e-4,27.093,23.495,0.15006,228.95,173.99,0,80.403,2.7706e-4,NaN
11.401,2031.3,165.58,13.871,272.28,5.7757e-4,0.0039079,0,0.010071,5.1285e-4,27.093,23.495,0.15006,228.94,173.99,0,80.375,-4.3653e-4,NaN
11.451,2039.5,164.89,13.832,273.67,5.9346e-4,0.0031111,0,0.010206,9.969e-4,27.093,23.495,0.15006,228.92,173.99,0,80.345,-0.0010894,NaN
11.501,2047.6,164.21,13.794,275.05,6.083e-4,0.0021087,0,0.010235,0.0017462,27.093,23.495,0.15006,228.91,173.99,0,80.316,-0.0015146,NaN
11.551,2055.6,163.52,13.756,276.43,6.2182e-4,0.0010594,0,0.0098888,0.0033975,27.093,23.495,0.15006,228.9,173.99,0,80.286,-0.0015083,NaN
11.601,2063.7,162.84,13.718,277.81,6.3408e-4,2.8195e-4,0,0,0,27.093,23.495,0.15006,228.89,173.99,0,80.256,-0.0011689,NaN
11.651,2071.7,162.16,13.681,279.19,6.4532e-4,7.812e-4,0,-0.01005,0.002973,27.093,23.495,0.15006,228.87,173.99,0,80.226,-8.5162e-4,NaN
11.701,2079.7,161.48,13.644,280.56,6.5577e-4,0.0012255,0,-0.010309,0.0015055,27.093,23.495,0.15006,228.86,173.99,0,80.196,-6.0774e-4,NaN
11.751,2087.6,160.81,13.607,281.94,6.6558e-4,0.0012856,0,-0.010311,9.5039e-4,27.093,23.495,0.15006,228.84,173.99,0,80.166,-2.7017e-4,NaN
11.801,2095.5,160.13,13.57,283.31,6.7499e-4,9.5584e-4,0,-0.010292,2.3482e-4,27.093,23.495,0.15006,228.83,173.99,0,80.137,2.8084e-4,NaN
11.851,2103.4,159.46,13.534,284.68,6.8431e-4,2.9198e-4,0,0,0,27.093,23.495,0.15006,228.82,173.99,0,80.107,7.6005e-4,NaN
11.901,2111.2,158.79,13.498,286.05,6.938e-4,6.3961e-4,0,0.010199,-0.0012664,27.093,23.495,0.15006,228.8,173.99,0,80.078,8.5985e-4,NaN
11.951,2119,158.12,13.462,287.41,7.0357e-4,0.0016234,0,0.010315,-4.9111e-4,27.093,23.495,0.15006,228.79,173.99,0,80.048,8.6314e-4,NaN
12.001,2126.8,157.45,13.427,288.78,7.1359e-4,0.0026131,0,0.010411,-3.1449e-4,27.093,23.495,0.15006,228.77,173.99,0,80.019,8.7207e-4,NaN
12.051,2134.5,156.79,13.392,290.14,7.2385e-4,0.0034765,0,0.010557,-1.6359e-4,27.093,23.495,0.15006,228.75,173.99,0,79.989,7.6711e-4,NaN
12.101,2142.2,156.12,13.357,291.51,7.3429e-4,0.00413,0,0.010718,6.2826e-5,27.093,23.495,0.15006,228.74,173.99,0,79.958,3.8342e-4,NaN
12.151,2149.9,155.46,13.323,292.87,7.4468e-4,0.0044947,0,0.010904,2.1087e-4,27.093,23.495,0.15006,228.73,173.99,0,79.927,-1.3427e-5,NaN
12.201,2157.5,154.8,13.289,294.23,7.5481e-4,0.0045589,0,0.01107,2.9384e-4,27.093,23.495,0.15006,228.71,173.99,0,79.896,-2.4077e-4,NaN
12.251,2165.1,154.14,13.255,295.58,7.6455e-4,0.0043603,0,0.011262,3.1644e-4,27.093,23.495,0.15006,228.7,173.99,0,79.864,-2.8656e-4,NaN
12.301,2172.7,153.49,13.221,296.94,7.739e-4,0.0039048,0,0.011412,3.5586e-4,27.093,23.495,0.15006,228.69,173.99,0,79.831,-2.9489e-4,NaN
12.351,2180.3,152.83,13.188,298.3,7.8287e-4,0.0032918,0,0.011556,3.6804e-4,27.093,23.495,0.15006,228.68,173.99,0,79.798,-2.4059e-4,NaN
12.401,2187.8,152.18,13.156,299.65,7.9152e-4,0.0025469,0,0.011679,9.3535e-5,27.093,23.495,0.15006,228.67,173.99,0,79.765,2.0601e-4,NaN
12.451,2195.2,151.53,13.123,301,8.0008e-4,0.0017468,0,0.011761,-6.7087e-4,27.093,23.495,0.15006,228.66,173.99,0,79.731,8.851e-4,NaN
12.501,2202.7,150.88,13.091,302.35,8.0892e-4,0.0010391,0,0.011519,-0.0026496,27.093,23.495,0.15006,228.65,173.99,0,79.698,0.0016657,NaN
12.551,2210.1,150.23,13.059,303.7,8.1845e-4,5.5736e-4,0,0.0091193,-0.0075795,27.093,23.495,0.15006,228.63,173.99,0,79.664,0.002402,NaN
12.601,2217.4,149.59,13.027,305.05,8.2902e-4,4.6152e-4,0,5.3129e-4,-0.011872,27.093,23.495,0.15006,228.62,173.99,0,79.63,0.0030377,NaN
12.651,2224.8,148.94,12.996,306.39,8.4095e-4,5.5649e-4,0,-0.0035719,-0.011335,27.093,23.495,0.15006,228.61,173.99,0,79.596,0.0034804,NaN
12.701,2232.1,148.3,12.964,307.74,8.5442e-4,5.5289e-4,0,-0.0020277,-0.01171,27.093,23.495,0.15006,228.6,173.99,0,79.562,0.0036147,NaN
12.751,2239.4,147.66,12.933,309.08,8.6944e-4,5.8183e-4,0,0.0048782,-0.010842,27.093,23.495,0.15006,228.59,173.99,0,79.527,0.0035934,NaN
12.801,2246.6,147.02,12.903,310.42,8.8598e-4,9.1752e-4,0,0.0099683,-0.0065403,27.093,23.495,0.15006,228.57,173.99,0,79.493,0.0035031,NaN
12.851,2253.8,146.38,12.872,311.76,9.0395e-4,0.0014913,0,0.011395,-0.0036892,27.093,23.495,0.15006,228.56,173.99,0,79.459,0.0033132,NaN
12.901,2261,145.74,12.842,313.1,9.2321e-4,0.0021871,0,0.011836,-0.0022129,27.093,23.495,0.15006,228.54,173.99,0,79.425,0.0030718,NaN
12.951,2268.2,145.11,12.812,314.43,9.4358e-4,0.0029242,0,0.01208,-0.0011379,27.093,23.495,0.15006,228.53,173.99,0,79.39,0.0024466,NaN
13.001,2275.3,144.47,12.782,315.77,9.647e-4,0.0036714,0,0.012222,-3.8709e-4,27.093,23.495,0.15006,228.52,173.99,0,79.355,0.0016211,NaN
13.051,2282.4,143.84,12.752,317.1,9.8618e-4,0.0043018,0,0.012394,2.1605e-5,27.093,23.495,0.15006,228.5,173.99,0,79.32,9.6855e-4,NaN
13.101,2289.4,143.21,12.723,318.44,0.0010077,0.0047473,0,0.012552,3.0098e-4,27.093,23.495,0.15006,228.49,173.99,0,79.284,3.7718e-4,NaN
13.151,2296.4,142.58,12.694,319.77,0.0010288,0.0049767,0,0.012726,4.6953e-4,27.093,23.495,0.15006,228.48,173.99,0,79.248,-3.3763e-5,NaN
13.201,2303.4,141.96,12.665,321.1,0.0010496,0.0049595,0,0.012906,6.6179e-4,27.093,23.495,0.15006,228.47,173.99,0,79.211,-4.2299e-4,NaN
13.251,2310.4,141.33,12.637,322.43,0.0010696,0.0047248,0,0.013058,8.7893e-4,27.093,23.495,0.15006,228.46,173.99,0,79.174,-7.9611e-4,NaN
13.301,2317.3,140.71,12.609,323.75,0.0010888,0.0043327,0,0.013198,0.0010637,27.093,23.495,0.15006,228.45,173.99,0,79.136,-0.0010149,NaN
13.351,2324.2,140.08,12.581,325.08,0.0011071,0.0038569,0,0.013302,0.001206,27.093,23.495,0.15006,228.44,173.99,0,79.098,-0.0010696,NaN
13.401,2331,139.46,12.553,326.4,0.0011245,0.0033729,0,0.013412,0.0012264,27.093,23.495,0.15006,228.43,173.99,0,79.06,-9.11e-4,NaN
13.451,2337.9,138.84,12.525,327.73,0.0011411,0.00289,0,0.013517,0.0010103,27.093,23.495,0.15006,228.42,173.99,0,79.021,-4.6242e-4,NaN
13.501,2344.7,138.22,12.498,329.05,0.0011571,0.0024771,0,0.013627,7.3876e-4,27.093,23.495,0.15006,228.41,173.99,0,78.982,-4.3725e-5,NaN
13.551,2351.4,137.61,12.471,330.37,0.0011728,0.0021569,0,0.013712,2.4464e-4,27.093,23.495,0.15006,228.4,173.99,0,78.943,4.4161e-4,NaN
13.601,2358.2,136.99,12.444,331.69,0.0011883,0.0019745,0,0.01376,-5.572e-4,27.093,23.495,0.15006,228.39,173.99,0,78.903,0.0010657,NaN
13.651,2364.9,136.38,12.418,333.01,0.001204,0.0019384,0,0.013792,-0.0011951,27.093,23.495,0.15006,228.38,173.99,0,78.864,0.0015318,NaN
13.701,2371.6,135.76,12.391,334.32,0.0012201,0.0020448,0,0.013804,-0.0015535,27.093,23.495,0.15006,228.37,173.99,0,78.824,0.0018764,NaN
13.751,2378.2,135.15,12.365,335.64,0.0012367,0.0022944,0,0.013863,-0.0016675,27.093,23.495,0.15006,228.35,173.99,0,78.784,0.0021283,NaN
13.801,2384.8,134.54,12.339,336.95,0.0012539,0.0026626,0,0.013944,-0.0015861,27.093,23.495,0.15006,228.34,173.99,0,78.744,0.0023021,NaN
13.851,2391.4,133.93,12.313,338.27,0.0012717,0.0031435,0,0.014052,-0.0012901,27.093,23.495,0.15006,228.33,173.99,0,78.704,0.0022658,NaN
13.901,2398,133.32,12.287,339.58,0.0012903,0.0036838,0,0.014171,-9.8216e-4,27.093,23.495,0.15006,228.32,173.99,0,78.663,0.0021363,NaN
13.951,2404.5,132.72,12.262,340.89,0.0013093,0.00425,0,0.014306,-6.9942e-4,27.093,23.495,0.15006,228.31,173.99,0,78.623,0.0019284,NaN
14.001,2411,132.11,12.237,342.2,0.0013289,0.0047871,0,0.014454,-4.0138e-4,27.093,23.495,0.15006,228.29,173.99,0,78.581,0.0015698,NaN
14.051,2417.4,131.51,12.212,343.5,0.0013487,0.0052386,0,0.014616,-1.041e-4,27.093,23.495,0.15006,228.28,173.99,0,78.54,0.0011323,NaN
14.101,2423.9,130.91,12.187,344.81,0.0013686,0.0055921,0,0.014764,2.4997e-4,27.093,23.495,0.15006,228.27,173.99,0,78.498,4.9083e-4,NaN
14.151,2430.3,130.31,12.163,346.11,0.0013884,0.0058628,0,0.01491,5.9741e-4,27.093,23.495,0.15006,228.26,173.99,0,78.455,-2.0711e-4,NaN
14.201,2436.6,129.71,12.138,347.42,0.0014076,0.0060251,0,0.015061,9.1264e-4,27.093,23.495,0.15006,228.25,173.99,0,78.412,-8.9305e-4,NaN
14.251,2443,129.11,12.114,348.72,0.0014261,0.0060655,0,0.015214,0.0011367,27.093,23.495,0.15006,228.24,173.99,0,78.369,-0.0013885,NaN
14.301,2449.3,128.51,12.09,350.02,0.0014437,0.0060123,0,0.015357,0.001232,27.093,23.495,0.15006,228.23,173.99,0,78.325,-0.001621,NaN
14.351,2455.5,127.92,12.066,351.32,0.0014602,0.0058603,0,0.015533,0.0012353,27.093,23.495,0.15006,228.22,173.99,0,78.28,-0.0015843,NaN
14.401,2461.8,127.32,12.043,352.62,0.0014757,0.0056258,0,0.015687,0.0011246,27.093,23.495,0.15006,228.21,173.99,0,78.235,-0.001349,NaN
14.451,2468,126.73,12.02,353.92,0.0014904,0.0053591,0,0.015839,9.4169e-4,27.093,23.495,0.15006,228.2,173.99,0,78.19,-9.6716e-4,NaN
14.501,2474.2,126.14,11.997,355.22,0.0015044,0.005099,0,0.015981,7.9378e-4,27.093,23.495,0.15006,228.2,173.99,0,78.145,-6.6316e-4,NaN
14.551,2480.4,125.55,11.974,356.51,0.0015178,0.0048376,0,0.016125,5.6521e-4,27.093,23.495,0.15006,228.19,173.99,0,78.098,-2.8859e-4,NaN
14.601,2486.5,124.96,11.951,357.81,0.0015309,0.0046185,0,0.016253,2.1881e-4,27.093,23.495,0.15006,228.18,173.99,0,78.052,2.1332e-4,NaN
14.651,2492.6,124.37,11.928,359.1,0.0015438,0.0044831,0,0.016354,-1.4634e-4,27.093,23.495,0.15006,228.17,173.99,0,78.005,7.1833e-4,NaN
14.701,2498.6,123.78,11.906,360.39,0.0015567,0.0044639,0,0.016453,-4.2184e-4,27.093,23.495,0.15006,228.16,173.99,0,77.958,0.0010997,NaN
14.751,2504.7,123.19,11.884,361.68,0.0015699,0.0045447,0,0.016554,-6.8508e-4,27.093,23.495,0.15006,228.15,173.99,0,77.911,0.0014428,NaN
14.801,2510.7,122.61,11.862,362.97,0.0015833,0.0047051,0,0.016658,-9.3644e-4,27.093,23.495,0.15006,228.14,173.99,0,77.863,0.0018289,NaN
14.851,2516.7,122.03,11.84,364.26,0.0015973,0.0049722,0,0.016748,-0.0011209,27.093,23.495,0.15006,228.13,173.99,0,77.816,0.0021768,NaN
14.901,2522.6,121.44,11.818,365.55,0.0016119,0.0053199,0,0.016879,-0.0011681,27.093,23.495,0.15006,228.12,173.99,0,77.767,0.0023851,NaN
14.951,2528.5,120.86,11.797,366.84,0.0016271,0.0057224,0,0.017007,-0.0010966,27.093,23.495,0.15006,228.11,173.99,0,77.719,0.0024167,NaN
15.001,2534.4,120.28,11.776,368.12,0.001643,0.0061602,0,0.017159,-9.7057e-4,27.093,23.495,0.15006,228.1,173.99,0,77.67,0.0023716,NaN
15.051,2540.3,119.7,11.755,369.41,0.0016595,0.0066195,0,0.01731,-7.6203e-4,27.093,23.495,0.15006,228.09,173.99,0,77.62,0.0021513,NaN
15.101,2546.1,119.13,11.734,370.69,0.0016766,0.0070952,0,0.017476,-4.7231e-4,27.093,23.495,0.15006,228.08,173.99,0,77.57,0.0017321,NaN
15.151,2551.9,118.55,11.713,371.97,0.001694,0.0075418,0,0.017653,-2.3628e-4,27.093,23.495,0.15006,228.07,173.99,0,77.52,0.0013097,NaN
15.201,2557.7,117.97,11.692,373.25,0.0017116,0.007944,0,0.017829,-4.7042e-5,27.093,23.495,0.15006,228.06,173.99,0,77.469,9.3479e-4,NaN
15.251,2563.4,117.4,11.672,374.53,0.0017292,0.0082959,0,0.017998,1.0372e-4,27.093,23.495,0.15006,228.05,173.99,0,77.418,6.2136e-4,NaN
15.301,2569.1,116.83,11.652,375.81,0.0017468,0.008605,0,0.018187,2.6162e-4,27.093,23.495,0.15006,228.04,173.99,0,77.366,2.7876e-4,NaN
15.351,2574.8,116.25,11.631,377.09,0.0017641,0.008833,0,0.01837,4.2821e-4,27.093,23.495,0.15006,228.03,173.99,0,77.314,-1.0608e-4,NaN
15.401,2580.5,115.68,11.612,378.37,0.0017812,0.0089868,0,0.018565,5.6909e-4,27.093,23.495,0.15006,228.02,173.99,0,77.261,-4.2998e-4,NaN
15.451,2586.1,115.11,11.592,379.64,0.0017977,0.0090715,0,0.018747,7.3677e-4,27.093,23.495,0.15006,228.01,173.99,0,77.207,-8.0972e-4,NaN
15.501,2591.7,114.54,11.572,380.92,0.0018137,0.0091232,0,0.018917,8.6259e-4,27.093,23.495,0.15006,228.01,173.99,0,77.153,-0.0011176,NaN
15.551,2597.3,113.98,11.553,382.19,0.001829,0.0091575,0,0.019097,9.5068e-4,27.093,23.495,0.15006,228,173.99,0,77.099,-0.0013402,NaN
15.601,2602.8,113.41,11.534,383.47,0.0018435,0.0091605,0,0.019279,9.7977e-4,27.093,23.495,0.15006,227.99,173.99,0,77.044,-0.0014312,NaN
15.651,2608.3,112.84,11.514,384.74,0.0018573,0.0091582,0,0.019461,9.3214e-4,27.093,23.495,0.15006,227.98,173.99,0,76.988,-0.0013669,NaN
15.701,2613.8,112.28,11.495,386.01,0.0018703,0.0091425,0,0.019658,8.4683e-4,27.093,23.495,0.15006,227.97,173.99,0,76.932,-0.001202,NaN
15.751,2619.3,111.72,11.477,387.28,0.0018828,0.0091184,0,0.019845,6.7697e-4,27.093,23.495,0.15006,227.96,173.99,0,76.875,-8.7601e-4,NaN
15.801,2624.7,111.15,11.458,388.55,0.0018947,0.0091113,0,0.02002,5.0132e-4,27.093,23.495,0.15006,227.96,173.99,0,76.818,-5.2734e-4,NaN
15.851,2630.1,110.59,11.44,389.81,0.0019062,0.0091553,0,0.020197,2.9069e-4,27.093,23.495,0.15006,227.95,173.99,0,76.761,-1.3204e-4,NaN
15.901,2635.5,110.03,11.421,391.08,0.0019174,0.0092489,0,0.02037,7.9845e-5,27.093,23.495,0.15006,227.94,173.99,0,76.703,2.8373e-4,NaN
15.951,2640.8,109.47,11.403,392.35,0.0019286,0.009391,0,0.020554,-1.2198e-4,27.093,23.495,0.15006,227.93,173.99,0,76.644,6.8159e-4,NaN
16.001,2646.1,108.91,11.385,393.61,0.0019399,0.0095786,0,0.020724,-3.6249e-4,27.093,23.495,0.15006,227.92,173.99,0,76.585,0.0011574,NaN
16.051,2651.4,108.36,11.367,394.88,0.0019513,0.0098252,0,0.020901,-6.0922e-4,27.093,23.495,0.15006,227.92,173.99,0,76.525,0.0016697,NaN
16.101,2656.7,107.8,11.349,396.14,0.0019632,0.01012,0,0.021075,-8.3667e-4,27.093,23.495,0.15006,227.91,173.99,0,76.465,0.0021849,NaN
16.151,2661.9,107.24,11.332,397.4,0.0019756,0.010468,0,0.021254,-9.8678e-4,27.093,23.495,0.15006,227.9,173.99,0,76.404,0.0025828,NaN
16.201,2667.1,106.69,11.314,398.66,0.0019886,0.01085,0,0.021449,-0.0010593,27.093,23.495,0.15006,227.89,173.99,0,76.343,0.0028451,NaN
16.251,2672.2,106.14,11.297,399.92,0.0020024,0.011258,0,0.021645,-0.0010651,27.093,23.495,0.15006,227.88,173.99,0,76.281,0.0029642,NaN
16.301,2677.4,105.58,11.28,401.18,0.0020169,0.011689,0,0.02185,-0.0010048,27.093,23.495,0.15006,227.87,173.99,0,76.219,0.0029405,NaN
16.351,2682.5,105.03,11.263,402.44,0.0020322,0.012154,0,0.022058,-8.995e-4,27.093,23.495,0.15006,227.86,173.99,0,76.156,0.002821,NaN
16.401,2687.6,104.48,11.246,403.7,0.0020481,0.012647,0,0.022275,-7.4607e-4,27.093,23.495,0.15006,227.85,173.99,0,76.092,0.0025595,NaN
16.451,2692.6,103.93,11.229,404.95,0.0020646,0.013143,0,0.0225,-5.3744e-4,27.093,23.495,0.15006,227.85,173.99,0,76.028,0.0021673,NaN
16.501,2697.7,103.39,11.212,406.21,0.0020816,0.013642,0,0.022726,-3.2126e-4,27.093,23.495,0.15006,227.84,173.99,0,75.963,0.0016782,NaN
16.551,2702.7,102.84,11.196,407.46,0.0020988,0.014148,0,0.022955,-9.5258e-5,27.093,23.495,0.15006,227.83,173.99,0,75.898,0.0011557,NaN
16.601,2707.6,102.29,11.179,408.72,0.0021162,0.014647,0,0.023189,1.4984e-4,27.093,23.495,0.15006,227.82,173.99,0,75.832,5.3808e-4,NaN
16.651,2712.6,101.75,11.163,409.97,0.0021334,0.015116,0,0.023436,3.8555e-4,27.093,23.495,0.15006,227.81,173.99,0,75.765,-8.6684e-5,NaN
16.701,2717.5,101.2,11.147,411.22,0.0021504,0.015551,0,0.023674,5.7936e-4,27.093,23.495,0.15006,227.8,173.99,0,75.698,-6.5353e-4,NaN
16.751,2722.4,100.66,11.131,412.47,0.0021669,0.015981,0,0.023908,7.4723e-4,27.093,23.495,0.15006,227.79,173.99,0,75.629,-0.0011559,NaN
16.801,2727.3,100.11,11.115,413.72,0.0021828,0.016406,0,0.024156,8.8178e-4,27.093,23.495,0.15006,227.79,173.99,0,75.561,-0.0015826,NaN
16.851,2732.1,99.573,11.099,414.97,0.002198,0.016809,0,0.024405,0.0010131,27.093,23.495,0.15006,227.78,173.99,0,75.491,-0.0020049,NaN
16.901,2736.9,99.032,11.084,416.22,0.0022123,0.017192,0,0.024662,0.0011136,27.093,23.495,0.15006,227.77,173.99,0,75.421,-0.0023706,NaN
16.951,2741.7,98.492,11.068,417.47,0.0022258,0.01754,0,0.024921,0.0011372,27.093,23.495,0.15006,227.76,173.99,0,75.349,-0.0025446,NaN
17.001,2746.4,97.953,11.053,418.71,0.0022382,0.017884,0,0.025184,0.0011014,27.093,23.495,0.15006,227.75,173.99,0,75.278,-0.0025411,NaN
17.051,2751.1,97.415,11.038,419.96,0.0022498,0.018213,0,0.025459,0.0010164,27.093,23.495,0.15006,227.75,173.99,0,75.205,-0.0023843,NaN
17.101,2755.8,96.878,11.023,421.2,0.0022604,0.01853,0,0.025729,8.9472e-4,27.093,23.495,0.15006,227.74,173.99,0,75.132,-0.0021116,NaN
17.151,2760.5,96.342,11.008,422.45,0.0022703,0.018864,0,0.025995,7.6247e-4,27.093,23.495,0.15006,227.73,173.99,0,75.058,-0.0017857,NaN
17.201,2765.1,95.806,10.993,423.69,0.0022795,0.01921,0,0.026272,6.1855e-4,27.093,23.495,0.15006,227.72,173.99,0,74.983,-0.001433,NaN
17.251,2769.8,95.272,10.978,424.93,0.0022882,0.019577,0,0.026545,4.4697e-4,27.093,23.495,0.15006,227.72,173.99,0,74.907,-9.9832e-4,NaN
17.301,2774.3,94.738,10.964,426.17,0.0022964,0.019971,0,0.026817,2.7616e-4,27.093,23.495,0.15006,227.71,173.99,0,74.831,-5.2781e-4,NaN
17.351,2778.9,94.206,10.949,427.41,0.0023044,0.020399,0,0.027097,9.162e-5,27.093,23.495,0.15006,227.7,173.99,0,74.753,-2.9745e-5,NaN
17.401,2783.4,93.674,10.935,428.65,0.0023123,0.020865,0,0.027371,-9.5749e-5,27.093,23.495,0.15006,227.69,173.99,0,74.675,4.992e-4,NaN
17.451,2787.9,93.143,10.921,429.89,0.0023202,0.021384,0,0.027651,-2.522e-4,27.093,23.495,0.15006,227.69,173.99,0,74.596,9.7834e-4,NaN
17.501,2792.4,92.613,10.907,431.13,0.0023283,0.021941,0,0.027937,-3.9027e-4,27.093,23.495,0.15006,227.68,173.99,0,74.517,0.0014094,NaN
17.551,2796.9,92.084,10.893,432.37,0.0023366,0.022543,0,0.028222,-5.1551e-4,27.093,23.495,0.15006,227.67,173.99,0,74.436,0.00182,NaN
17.601,2801.3,91.556,10.879,433.61,0.0023454,0.023197,0,0.028512,-5.9713e-4,27.093,23.495,0.15006,227.66,173.99,0,74.355,0.002138,NaN
17.651,2805.7,91.028,10.865,434.84,0.0023546,0.023898,0,0.028808,-6.6038e-4,27.093,23.495,0.15006,227.65,173.99,0,74.273,0.002391,NaN
17.701,2810,90.502,10.851,436.08,0.0023644,0.024657,0,0.029104,-6.8672e-4,27.093,23.495,0.15006,227.64,173.99,0,74.19,0.0025639,NaN
17.751,2814.4,89.976,10.838,437.31,0.0023747,0.025472,0,0.02941,-6.7359e-4,27.093,23.495,0.15006,227.64,173.99,0,74.106,0.0026146,NaN
17.801,2818.7,89.452,10.824,438.55,0.0023856,0.026331,0,0.029727,-6.4891e-4,27.093,23.495,0.15006,227.63,173.99,0,74.021,0.0026081,NaN
17.851,2823,88.928,10.811,439.78,0.002397,0.027225,0,0.030048,-6.0723e-4,27.093,23.495,0.15006,227.62,173.99,0,73.936,0.0025553,NaN
17.901,2827.2,88.405,10.798,441.01,0.002409,0.028157,0,0.03038,-5.5115e-4,27.093,23.495,0.15006,227.61,173.99,0,73.849,0.0024426,NaN
17.951,2831.5,87.883,10.785,442.24,0.0024215,0.029115,0,0.030713,-4.7971e-4,27.093,23.495,0.15006,227.6,173.99,0,73.762,0.0022815,NaN
18.001,2835.7,87.361,10.772,443.47,0.0024344,0.030102,0,0.03106,-3.7813e-4,27.093,23.495,0.15006,227.59,173.99,0,73.673,0.0020173,NaN
18.051,2839.9,86.841,10.759,444.7,0.0024477,0.031094,0,0.031416,-2.4669e-4,27.093,23.495,0.15006,227.58,173.99,0,73.584,0.0016334,NaN
18.101,2844,86.322,10.746,445.93,0.0024612,0.032099,0,0.031774,-1.1124e-4,27.093,23.495,0.15006,227.58,173.99,0,73.493,0.0011921,NaN
18.151,2848.1,85.803,10.734,447.16,0.0024749,0.033112,0,0.032139,2.6895e-5,27.093,23.495,0.15006,227.57,173.99,0,73.402,7.1744e-4,NaN
18.201,2852.2,85.285,10.721,448.39,0.0024885,0.034138,0,0.032506,1.5674e-4,27.093,23.495,0.15006,227.56,173.99,0,73.309,2.3745e-4,NaN
18.251,2856.3,84.768,10.709,449.61,0.0025021,0.035184,0,0.032882,2.6396e-4,27.093,23.495,0.15006,227.55,173.99,0,73.215,-1.9601e-4,NaN
18.301,2860.3,84.252,10.696,450.84,0.0025154,0.036238,0,0.033268,3.5117e-4,27.093,23.495,0.15006,227.54,173.99,0,73.121,-5.6574e-4,NaN
18.351,2864.4,83.737,10.684,452.06,0.0025285,0.037292,0,0.033661,4.3735e-4,27.093,23.495,0.15006,227.53,173.99,0,73.025,-9.1602e-4,NaN
18.401,2868.3,83.222,10.672,453.29,0.0025411,0.038346,0,0.034057,5.1416e-4,27.093,23.495,0.15006,227.52,173.99,0,72.928,-0.0012612,NaN
18.451,2872.3,82.709,10.66,454.51,0.0025533,0.039421,0,0.034454,5.8003e-4,27.093,23.495,0.15006,227.51,173.99,0,72.83,-0.001573,NaN
18.501,2876.2,82.196,10.648,455.74,0.002565,0.040526,0,0.034859,6.2013e-4,27.093,23.495,0.15006,227.51,173.99,0,72.73,-0.0018055,NaN
18.551,2880.2,81.684,10.636,456.96,0.0025761,0.041649,0,0.035273,6.4534e-4,27.093,23.495,0.15006,227.5,173.99,0,72.63,-0.0019846,NaN
18.601,2884,81.173,10.624,458.18,0.0025866,0.0428,0,0.035687,6.5666e-4,27.093,23.495,0.15006,227.49,173.99,0,72.528,-0.0020983,NaN
18.651,2887.9,80.663,10.613,459.4,0.0025964,0.043981,0,0.036115,6.504e-4,27.093,23.495,0.15006,227.48,173.99,0,72.425,-0.0021624,NaN
18.701,2891.7,80.153,10.601,460.62,0.0026056,0.045192,0,0.036548,6.2803e-4,27.093,23.495,0.15006,227.47,173.99,0,72.321,-0.0021484,NaN
18.751,2895.5,79.645,10.59,461.84,0.0026142,0.046435,0,0.036985,5.8753e-4,27.093,23.495,0.15006,227.46,173.99,0,72.216,-0.0020693,NaN
18.801,2899.3,79.137,10.579,463.06,0.0026222,0.047729,0,0.037427,5.319e-4,27.093,23.495,0.15006,227.45,173.99,0,72.109,-0.0019166,NaN
18.851,2903.1,78.63,10.568,464.28,0.0026297,0.049078,0,0.037874,4.6754e-4,27.093,23.495,0.15006,227.44,173.99,0,72.001,-0.0017123,NaN
18.901,2906.8,78.124,10.556,465.5,0.0026367,0.050481,0,0.038334,3.9315e-4,27.093,23.495,0.15006,227.43,173.99,0,71.892,-0.0014668,NaN
18.951,2910.5,77.619,10.545,466.71,0.0026433,0.051933,0,0.0388,3.0991e-4,27.093,23.495,0.15006,227.42,173.99,0,71.782,-0.0011695,NaN
19.001,2914.2,77.115,10.534,467.93,0.0026496,0.05345,0,0.039266,2.2734e-4,27.093,23.495,0.15006,227.41,173.99,0,71.67,-8.4783e-4,NaN
19.051,2917.8,76.612,10.524,469.15,0.0026556,0.055041,0,0.039742,1.3946e-4,27.093,23.495,0.15006,227.4,173.99,0,71.557,-5.05e-4,NaN
19.101,2921.4,76.109,10.513,470.36,0.0026614,0.05671,0,0.040223,4.1264e-5,27.093,23.495,0.15006,227.4,173.99,0,71.442,-1.1193e-4,NaN
19.151,2925,75.607,10.502,471.58,0.0026671,0.058464,0,0.040713,-5.6428e-5,27.093,23.495,0.15006,227.38,173.99,0,71.326,3.1229e-4,NaN
19.201,2928.6,75.106,10.492,472.79,0.0026728,0.060306,0,0.041212,-1.4348e-4,27.093,23.495,0.15006,227.37,173.99,0,71.209,7.238e-4,NaN
19.251,2932.1,74.606,10.481,474,0.0026786,0.062229,0,0.04172,-2.2764e-4,27.093,23.495,0.15006,227.36,173.99,0,71.09,0.0011205,NaN
19.301,2935.6,74.107,10.471,475.21,0.0026846,0.064241,0,0.042234,-2.9209e-4,27.093,23.495,0.15006,227.35,173.99,0,70.97,0.0014777,NaN
19.351,2939.1,73.609,10.461,476.43,0.0026909,0.066351,0,0.042756,-3.4958e-4,27.093,23.495,0.15006,227.34,173.99,0,70.848,0.0017882,NaN
19.401,2942.6,73.111,10.451,477.64,0.0026975,0.068563,0,0.043289,-3.985e-4,27.093,23.495,0.15006,227.33,173.99,0,70.725,0.0020785,NaN
19.451,2946,72.615,10.44,478.85,0.0027044,0.070881,0,0.043828,-4.3131e-4,27.093,23.495,0.15006,227.32,173.99,0,70.6,0.0023203,NaN
19.501,2949.4,72.119,10.43,480.06,0.0027118,0.073303,0,0.044382,-4.594e-4,27.093,23.495,0.15006,227.31,173.99,0,70.474,0.0025105,NaN
19.551,2952.8,71.624,10.42,481.27,0.0027196,0.075826,0,0.04495,-4.7133e-4,27.093,23.495,0.15006,227.29,173.99,0,70.346,0.0026654,NaN
19.601,2956.2,71.13,10.411,482.48,0.0027279,0.078442,0,0.045527,-4.7291e-4,27.093,23.495,0.15006,227.28,173.99,0,70.216,0.0027564,NaN
19.651,2959.5,70.637,10.401,483.68,0.0027366,0.081158,0,0.046115,-4.5983e-4,27.093,23.495,0.15006,227.27,173.99,0,70.085,0.0027932,NaN
19.701,2962.8,70.144,10.391,484.89,0.0027459,0.083981,0,0.046712,-4.3326e-4,27.093,23.495,0.15006,227.26,173.99,0,69.952,0.0027602,NaN
19.751,2966.1,69.653,10.382,486.1,0.0027556,0.086912,0,0.047321,-3.9465e-4,27.093,23.495,0.15006,227.24,173.99,0,69.817,0.0026512,NaN
19.801,2969.4,69.162,10.372,487.3,0.0027657,0.089948,0,0.047945,-3.5448e-4,27.093,23.495,0.15006,227.23,173.99,0,69.681,0.0025045,NaN
19.851,2972.6,68.673,10.363,488.51,0.0027763,0.093093,0,0.048582,-3.012e-4,27.093,23.495,0.15006,227.22,173.99,0,69.543,0.0023045,NaN
19.901,2975.8,68.184,10.353,489.72,0.0027872,0.096346,0,0.049229,-2.4251e-4,27.093,23.495,0.15006,227.2,173.99,0,69.402,0.0020525,NaN
19.951,2979,67.696,10.344,490.92,0.0027984,0.099712,0,0.049888,-1.804e-4,27.093,23.495,0.15006,227.19,173.99,0,69.26,0.0017653,NaN
20.001,2982.1,67.209,10.335,492.12,0.0028098,0.10319,0,0.050562,-1.2536e-4,27.093,23.495,0.15006,227.17,173.99,0,69.117,0.0014687,NaN
20.051,2985.2,66.723,10.326,493.33,0.0028214,0.10679,0,0.051248,-7.1558e-5,27.093,23.495,0.15006,227.16,173.99,0,68.971,0.001179,NaN
20.101,2988.3,66.238,10.317,494.53,0.0028331,0.11051,0,0.051945,-1.607e-5,27.093,23.495,0.15006,227.14,173.99,0,68.823,8.8102e-4,NaN
20.151,2991.4,65.754,10.308,495.73,0.0028449,0.11437,0,0.052655,3.5385e-5,27.093,23.495,0.15006,227.13,173.99,0,68.673,5.7871e-4,NaN
20.201,2994.5,65.27,10.299,496.93,0.0028567,0.11835,0,0.053382,8.1386e-5,27.093,23.495,0.15006,227.11,173.99,0,68.521,2.8783e-4,NaN
20.251,2997.5,64.788,10.291,498.13,0.0028684,0.12247,0,0.054122,1.2735e-4,27.093,23.495,0.15006,227.09,173.99,0,68.367,1.916e-6,NaN
20.301,3000.5,64.306,10.282,499.33,0.00288,0.12673,0,0.054872,1.7081e-4,27.093,23.495,0.15006,227.08,173.99,0,68.211,-2.8286e-4,NaN
20.351,3003.4,63.826,10.273,500.53,0.0028914,0.13115,0,0.055638,2.0788e-4,27.093,23.495,0.15006,227.06,173.99,0,68.053,-5.5317e-4,NaN
20.401,3006.4,63.346,10.265,501.73,0.0029027,0.13573,0,0.056419,2.4113e-4,27.093,23.495,0.15006,227.04,173.99,0,67.892,-7.9744e-4,NaN
20.451,3009.3,62.867,10.256,502.93,0.0029136,0.14047,0,0.057214,2.6513e-4,27.093,23.495,0.15006,227.02,173.99,0,67.73,-0.0010189,NaN
